{
"type": "FeatureCollection",
"name": "example_landmarks",
"crs": { "type": "name", "properties": { "name": "urn:ogc:def:crs:OGC:1.3:CRS84" } },
"features": [
{ "type": "Feature", "properties": { "name": "garden city platform works", "type": "point_of_interest;establishment" }, "geometry": { "type": "Point", "coordinates": [ 36.6669733, -1.3408235 ] } },
{ "type": "Feature", "properties": { "name": "jorge's wardrobe- yaya center", "type": "clothing_store;store;point_of_interest;establishment" }, "geometry": { "type": "Point", "coordinates": [ 36.785971, -1.2933126 ] } },
{ "type": "Feature", "properties": { "name": "kaps parking yaya center", "type": "parking;point_of_interest;establishment" }, "geometry": { "type": "Point", "coordinates": [ 36.7874227, -1.2930736 ] } },
{ "type": "Feature", "properties": { "name": "barclays bank yaya center", "type": "bank;finance;point_of_interest;establishment" }, "geometry": { "type": "Point", "coordinates": [ 36.7877579, -1.2930532 ] } },
{ "type": "Feature", "properties": { "name": "yaya center swiming pool", "type": "point_of_interest;establishment" }, "geometry": { "type": "Point", "coordinates": [ 36.7884493, -1.2933372 ] } },
{ "type": "Feature", "properties": { "name": "dhl express yaya center", "type": "point_of_interest;establishment" }, "geometry": { "type": "Point", "coordinates": [ 36.7874971, -1.29263 ] } },
{ "type": "Feature", "properties": { "name": "yaya center", "type": "gym;health;point_of_interest;establishment" }, "geometry": { "type": "Point", "coordinates": [ 36.7399654, -1.2907469 ] } },
{ "type": "Feature", "properties": { "name": "pangani barbershop", "type": "hair_care;health;point_of_interest;establishment" }, "geometry": { "type": "Point", "coordinates": [ 36.8311396, -1.2837235 ] } },
{ "type": "Feature", "properties": { "name": "pangani primary playground", "type": "point_of_interest;establishment" }, "geometry": { "type": "Point", "coordinates": [ 36.8434024, -1.2763845 ] } },
{ "type": "Feature", "properties": { "name": "pangani service station", "type": "gas_station;point_of_interest;establishment" }, "geometry": { "type": "Point", "coordinates": [ 36.8310876, -1.2759519 ] } },
{ "type": "Feature", "properties": { "name": "field pangani education centre", "type": "point_of_interest;establishment" }, "geometry": { "type": "Point", "coordinates": [ 36.8437916, -1.2758528 ] } },
{ "type": "Feature", "properties": { "name": "pangani primary school", "type": "school;point_of_interest;establishment" }, "geometry": { "type": "Point", "coordinates": [ 36.8440672, -1.2755173 ] } },
{ "type": "Feature", "properties": { "name": "regent automobile valuers and assessors-pangani", "type": "store;point_of_interest;establishment" }, "geometry": { "type": "Point", "coordinates": [ 36.820032, -1.274695 ] } },
{ "type": "Feature", "properties": { "name": "pangani guest house annexe", "type": "lodging;point_of_interest;establishment" }, "geometry": { "type": "Point", "coordinates": [ 36.8514084, -1.2745054 ] } },
{ "type": "Feature", "properties": { "name": "pangani girls school football field", "type": "premise;point_of_interest;establishment" }, "geometry": { "type": "Point", "coordinates": [ 36.8373064, -1.2712525 ] } },
{ "type": "Feature", "properties": { "name": "pesapoint pos home choice pangani", "type": "bank;finance;point_of_interest;establishment" }, "geometry": { "type": "Point", "coordinates": [ 36.841675, -1.271981 ] } },
{ "type": "Feature", "properties": { "name": "pangani girls secondary school", "type": "school;point_of_interest;establishment" }, "geometry": { "type": "Point", "coordinates": [ 36.837811, -1.2711228 ] } },
{ "type": "Feature", "properties": { "name": "deliverance church pangani", "type": "church;place_of_worship;point_of_interest;establishment" }, "geometry": { "type": "Point", "coordinates": [ 36.8352172, -1.270533 ] } },
{ "type": "Feature", "properties": { "name": "pangani girls school's hostel", "type": "lodging;point_of_interest;establishment" }, "geometry": { "type": "Point", "coordinates": [ 36.8384993, -1.2706374 ] } },
{ "type": "Feature", "properties": { "name": "pangani recreational field", "type": "point_of_interest;establishment" }, "geometry": { "type": "Point", "coordinates": [ 36.8342312, -1.2704784 ] } },
{ "type": "Feature", "properties": { "name": "pangani post", "type": "bus_station;transit_station;point_of_interest;establishment" }, "geometry": { "type": "Point", "coordinates": [ 36.835553, -1.27026 ] } },
{ "type": "Feature", "properties": { "name": "pangani police post", "type": "bus_station;transit_station;point_of_interest;establishment" }, "geometry": { "type": "Point", "coordinates": [ 36.835758, -1.270257 ] } },
{ "type": "Feature", "properties": { "name": "pangani police post", "type": "bus_station;transit_station;point_of_interest;establishment" }, "geometry": { "type": "Point", "coordinates": [ 36.8357259, -1.2701976 ] } },
{ "type": "Feature", "properties": { "name": "pangani girls", "type": "bus_station;transit_station;point_of_interest;establishment" }, "geometry": { "type": "Point", "coordinates": [ 36.837382, -1.270169 ] } },
{ "type": "Feature", "properties": { "name": "pangani girls school flyover", "type": "route" }, "geometry": { "type": "Point", "coordinates": [ 36.8375666, -1.2700981 ] } },
{ "type": "Feature", "properties": { "name": "pangani girls school flyover", "type": "route" }, "geometry": { "type": "Point", "coordinates": [ 36.8378618, -1.2700963 ] } },
{ "type": "Feature", "properties": { "name": "gas point depot (pangani)", "type": "point_of_interest;establishment" }, "geometry": { "type": "Point", "coordinates": [ 36.839751, -1.270256 ] } },
{ "type": "Feature", "properties": { "name": "pangani educational centre", "type": "school;point_of_interest;establishment" }, "geometry": { "type": "Point", "coordinates": [ 36.843788, -1.270427 ] } },
{ "type": "Feature", "properties": { "name": "pangani police station", "type": "police;point_of_interest;establishment" }, "geometry": { "type": "Point", "coordinates": [ 36.8360283, -1.2699695 ] } },
{ "type": "Feature", "properties": { "name": "pangani girls swimming pool", "type": "premise;point_of_interest;establishment" }, "geometry": { "type": "Point", "coordinates": [ 36.8374746, -1.2689448 ] } },
{ "type": "Feature", "properties": { "name": "pangani girls basketball court", "type": "premise;point_of_interest;establishment" }, "geometry": { "type": "Point", "coordinates": [ 36.8370121, -1.2695893 ] } },
{ "type": "Feature", "properties": { "name": "pangani girls bus stop", "type": "bus_station;transit_station;point_of_interest;establishment" }, "geometry": { "type": "Point", "coordinates": [ 36.8382586, -1.2697917 ] } },
{ "type": "Feature", "properties": { "name": "pangani girls\/ chai road", "type": "bus_station;transit_station;point_of_interest;establishment" }, "geometry": { "type": "Point", "coordinates": [ 36.8383915, -1.2699145 ] } },
{ "type": "Feature", "properties": { "name": "pangani lutheran children's centre, pangani house", "type": "point_of_interest;establishment" }, "geometry": { "type": "Point", "coordinates": [ 36.8405552, -1.2700243 ] } },
{ "type": "Feature", "properties": { "name": "northpole education center - pangani", "type": "school;point_of_interest;establishment" }, "geometry": { "type": "Point", "coordinates": [ 36.840329, -1.269684 ] } },
{ "type": "Feature", "properties": { "name": "mumbi flats, pangani", "type": "point_of_interest;establishment" }, "geometry": { "type": "Point", "coordinates": [ 36.8408275, -1.2697075 ] } },
{ "type": "Feature", "properties": { "name": "radiant hospital pangani", "type": "hospital;point_of_interest;establishment" }, "geometry": { "type": "Point", "coordinates": [ 36.8409777, -1.2695895 ] } },
{ "type": "Feature", "properties": { "name": "pangani auction centre", "type": "car_dealer;store;point_of_interest;establishment" }, "geometry": { "type": "Point", "coordinates": [ 36.831841, -1.2691446 ] } },
{ "type": "Feature", "properties": { "name": "pangani auction centre", "type": "car_dealer;store;point_of_interest;establishment" }, "geometry": { "type": "Point", "coordinates": [ 36.8319648, -1.2691381 ] } },
{ "type": "Feature", "properties": { "name": "sikh temple,pangani", "type": "hindu_temple;premise;place_of_worship;point_of_interest;establishment" }, "geometry": { "type": "Point", "coordinates": [ 36.8334379, -1.2690118 ] } },
{ "type": "Feature", "properties": { "name": "pangani girls netball pitch", "type": "premise;point_of_interest;establishment" }, "geometry": { "type": "Point", "coordinates": [ 36.8368859, -1.2692578 ] } },
{ "type": "Feature", "properties": { "name": "pangani girls school flyover", "type": "route" }, "geometry": { "type": "Point", "coordinates": [ 36.8380504, -1.2697655 ] } },
{ "type": "Feature", "properties": { "name": "pangani high school playground", "type": "point_of_interest;establishment" }, "geometry": { "type": "Point", "coordinates": [ 36.837405, -1.2693803 ] } },
{ "type": "Feature", "properties": { "name": "pangani girls new school library", "type": "library;point_of_interest;establishment" }, "geometry": { "type": "Point", "coordinates": [ 36.8365467, -1.2688011 ] } },
{ "type": "Feature", "properties": { "name": "pangani girls school tuck shop", "type": "point_of_interest;establishment" }, "geometry": { "type": "Point", "coordinates": [ 36.8368229, -1.2686675 ] } },
{ "type": "Feature", "properties": { "name": "pangani", "type": "sublocality_level_1;sublocality;political" }, "geometry": { "type": "Point", "coordinates": [ 36.8398293, -1.272545 ] } },
{ "type": "Feature", "properties": { "name": "pangani girls old school library", "type": "library;point_of_interest;establishment" }, "geometry": { "type": "Point", "coordinates": [ 36.8379161, -1.2683765 ] } },
{ "type": "Feature", "properties": { "name": "oilibya pangani", "type": "gas_station;point_of_interest;establishment" }, "geometry": { "type": "Point", "coordinates": [ 36.8337438, -1.268059 ] } },
{ "type": "Feature", "properties": { "name": "pangani girls chemistry and physics labs", "type": "point_of_interest;establishment" }, "geometry": { "type": "Point", "coordinates": [ 36.8378046, -1.2680958 ] } },
{ "type": "Feature", "properties": { "name": "pangani enterprise", "type": "grocery_or_supermarket;store;food;point_of_interest;establishment" }, "geometry": { "type": "Point", "coordinates": [ 36.8394629, -1.2677911 ] } },
{ "type": "Feature", "properties": { "name": "mohi pangani", "type": "point_of_interest;establishment" }, "geometry": { "type": "Point", "coordinates": [ 36.8414497, -1.2682165 ] } },
{ "type": "Feature", "properties": { "name": "barclays bank - pangani branch", "type": "bank;finance;point_of_interest;establishment" }, "geometry": { "type": "Point", "coordinates": [ 36.8341635, -1.26772 ] } },
{ "type": "Feature", "properties": { "name": "nairobi water company pangani", "type": "point_of_interest;establishment" }, "geometry": { "type": "Point", "coordinates": [ 36.8344853, -1.2673768 ] } },
{ "type": "Feature", "properties": { "name": "bliss gvs healthcare pangani", "type": "health;point_of_interest;establishment" }, "geometry": { "type": "Point", "coordinates": [ 36.8372876, -1.2674224 ] } },
{ "type": "Feature", "properties": { "name": "fly over pangani", "type": "bus_station;transit_station;point_of_interest;establishment" }, "geometry": { "type": "Point", "coordinates": [ 36.834376, -1.26701 ] } },
{ "type": "Feature", "properties": { "name": "pangani barcelona shop", "type": "shopping_mall;point_of_interest;establishment" }, "geometry": { "type": "Point", "coordinates": [ 36.8370948, -1.2670604 ] } },
{ "type": "Feature", "properties": { "name": "pangani shopping center", "type": "shopping_mall;point_of_interest;establishment" }, "geometry": { "type": "Point", "coordinates": [ 36.8373071, -1.2672428 ] } },
{ "type": "Feature", "properties": { "name": "hidden tavern - pangani", "type": "liquor_store;store;food;point_of_interest;establishment" }, "geometry": { "type": "Point", "coordinates": [ 36.8372896, -1.2670681 ] } },
{ "type": "Feature", "properties": { "name": "pangani mosque", "type": "mosque;place_of_worship;point_of_interest;establishment" }, "geometry": { "type": "Point", "coordinates": [ 36.8408757, -1.267101 ] } },
{ "type": "Feature", "properties": { "name": "pangani", "type": "bus_station;transit_station;point_of_interest;establishment" }, "geometry": { "type": "Point", "coordinates": [ 36.834315, -1.266785 ] } },
{ "type": "Feature", "properties": { "name": "pangani flyover", "type": "route" }, "geometry": { "type": "Point", "coordinates": [ 36.834416, -1.266374 ] } },
{ "type": "Feature", "properties": { "name": "pangani milk cafe", "type": "cafe;food;point_of_interest;establishment" }, "geometry": { "type": "Point", "coordinates": [ 36.839949, -1.2667212 ] } },
{ "type": "Feature", "properties": { "name": "pangani", "type": "bus_station;transit_station;point_of_interest;establishment" }, "geometry": { "type": "Point", "coordinates": [ 36.835124, -1.266179 ] } },
{ "type": "Feature", "properties": { "name": "pangani underground pass", "type": "route;point_of_interest;establishment" }, "geometry": { "type": "Point", "coordinates": [ 36.8350094, -1.2661279 ] } },
{ "type": "Feature", "properties": { "name": "marie stopes pangani", "type": "health;point_of_interest;establishment" }, "geometry": { "type": "Point", "coordinates": [ 36.8369, -1.2661846 ] } },
{ "type": "Feature", "properties": { "name": "pangani heights", "type": "point_of_interest;establishment" }, "geometry": { "type": "Point", "coordinates": [ 36.8374321, -1.2660632 ] } },
{ "type": "Feature", "properties": { "name": "third parklands pangani shopping centre, river side drive", "type": "shopping_mall;point_of_interest;establishment" }, "geometry": { "type": "Point", "coordinates": [ 36.8383456, -1.2662228 ] } },
{ "type": "Feature", "properties": { "name": "wings driving school pangani", "type": "school;point_of_interest;establishment" }, "geometry": { "type": "Point", "coordinates": [ 36.840105, -1.265964 ] } },
{ "type": "Feature", "properties": { "name": "lower pangani apartments", "type": "point_of_interest;establishment" }, "geometry": { "type": "Point", "coordinates": [ 36.8407919, -1.2659382 ] } },
{ "type": "Feature", "properties": { "name": "pesapoint atm kcb - pangani", "type": "atm;finance;point_of_interest;establishment" }, "geometry": { "type": "Point", "coordinates": [ 36.836055, -1.265489 ] } },
{ "type": "Feature", "properties": { "name": "pangani terminal", "type": "bus_station;transit_station;point_of_interest;establishment" }, "geometry": { "type": "Point", "coordinates": [ 36.838571, -1.265068 ] } },
{ "type": "Feature", "properties": { "name": "pangani matatu stage", "type": "point_of_interest;establishment" }, "geometry": { "type": "Point", "coordinates": [ 36.8395769, -1.2655226 ] } },
{ "type": "Feature", "properties": { "name": "pangani cycle mart", "type": "car_repair;store;point_of_interest;establishment" }, "geometry": { "type": "Point", "coordinates": [ 36.8367401, -1.2650599 ] } },
{ "type": "Feature", "properties": { "name": "glory driving school (pangani)", "type": "school;point_of_interest;establishment" }, "geometry": { "type": "Point", "coordinates": [ 36.837008, -1.264982 ] } },
{ "type": "Feature", "properties": { "name": "pangani palace apartments", "type": "point_of_interest;establishment" }, "geometry": { "type": "Point", "coordinates": [ 36.8394086, -1.2646373 ] } },
{ "type": "Feature", "properties": { "name": "pangani flyover", "type": "point_of_interest;establishment" }, "geometry": { "type": "Point", "coordinates": [ 36.8376775, -1.2642313 ] } },
{ "type": "Feature", "properties": { "name": "city park-pangani flyover", "type": "route" }, "geometry": { "type": "Point", "coordinates": [ 36.8378646, -1.2639778 ] } },
{ "type": "Feature", "properties": { "name": "city park-pangani flyover", "type": "route" }, "geometry": { "type": "Point", "coordinates": [ 36.837773, -1.2637684 ] } },
{ "type": "Feature", "properties": { "name": "city park-pangani flyover", "type": "route" }, "geometry": { "type": "Point", "coordinates": [ 36.8377084, -1.2635338 ] } },
{ "type": "Feature", "properties": { "name": "a plus motors roasters", "type": "car_dealer;store;point_of_interest;establishment" }, "geometry": { "type": "Point", "coordinates": [ 36.8276584, -1.258569 ] } },
{ "type": "Feature", "properties": { "name": "d.o roysambu division", "type": "point_of_interest;establishment" }, "geometry": { "type": "Point", "coordinates": [ 36.8741512, -1.2502769 ] } },
{ "type": "Feature", "properties": { "name": "m-pesa roasters inn", "type": "finance;point_of_interest;establishment" }, "geometry": { "type": "Point", "coordinates": [ 36.8685615, -1.2426719 ] } },
{ "type": "Feature", "properties": { "name": "roasters", "type": "bus_station;transit_station;point_of_interest;establishment" }, "geometry": { "type": "Point", "coordinates": [ 36.8725446, -1.2355864 ] } },
{ "type": "Feature", "properties": { "name": "roasters inn", "type": "restaurant;food;point_of_interest;establishment" }, "geometry": { "type": "Point", "coordinates": [ 36.872089, -1.2342585 ] } },
{ "type": "Feature", "properties": { "name": "roasters roundabout", "type": "point_of_interest;establishment" }, "geometry": { "type": "Point", "coordinates": [ 36.873424, -1.234118 ] } },
{ "type": "Feature", "properties": { "name": "garden city villas", "type": "point_of_interest;establishment" }, "geometry": { "type": "Point", "coordinates": [ 36.8793998, -1.2336936 ] } },
{ "type": "Feature", "properties": { "name": "roasters", "type": "bus_station;transit_station;point_of_interest;establishment" }, "geometry": { "type": "Point", "coordinates": [ 36.872552, -1.233597 ] } },
{ "type": "Feature", "properties": { "name": "roasters", "type": "bus_station;transit_station;point_of_interest;establishment" }, "geometry": { "type": "Point", "coordinates": [ 36.873429, -1.232715 ] } },
{ "type": "Feature", "properties": { "name": "roasters\/naivas", "type": "bus_station;transit_station;point_of_interest;establishment" }, "geometry": { "type": "Point", "coordinates": [ 36.8740278, -1.2330866 ] } },
{ "type": "Feature", "properties": { "name": "tecno mobile brand shop garden city mall", "type": "electronics_store;store;point_of_interest;establishment" }, "geometry": { "type": "Point", "coordinates": [ 36.8786127, -1.2330015 ] } },
{ "type": "Feature", "properties": { "name": "imax garden city", "type": "movie_theater;point_of_interest;establishment" }, "geometry": { "type": "Point", "coordinates": [ 36.879345, -1.2330551 ] } },
{ "type": "Feature", "properties": { "name": "leo salon, barber & spa (garden city)", "type": "beauty_salon;point_of_interest;establishment" }, "geometry": { "type": "Point", "coordinates": [ 36.878531, -1.23251 ] } },
{ "type": "Feature", "properties": { "name": "kcb garden city", "type": "bank;finance;point_of_interest;establishment" }, "geometry": { "type": "Point", "coordinates": [ 36.878878, -1.2324782 ] } },
{ "type": "Feature", "properties": { "name": "equity bank garden city branch", "type": "bank;finance;point_of_interest;establishment" }, "geometry": { "type": "Point", "coordinates": [ 36.878993, -1.232666 ] } },
{ "type": "Feature", "properties": { "name": "moca loca coffee & lounge - garden city mall", "type": "restaurant;food;point_of_interest;establishment" }, "geometry": { "type": "Point", "coordinates": [ 36.8787854, -1.2323227 ] } },
{ "type": "Feature", "properties": { "name": "kfc garden city", "type": "restaurant;food;point_of_interest;establishment" }, "geometry": { "type": "Point", "coordinates": [ 36.8790603, -1.2324765 ] } },
{ "type": "Feature", "properties": { "name": "lintons beauty world - garden city", "type": "store;point_of_interest;establishment" }, "geometry": { "type": "Point", "coordinates": [ 36.879055, -1.232319 ] } },
{ "type": "Feature", "properties": { "name": "garden city apartments", "type": "point_of_interest;establishment" }, "geometry": { "type": "Point", "coordinates": [ 36.8795095, -1.2325297 ] } },
{ "type": "Feature", "properties": { "name": "garden city village", "type": "point_of_interest;establishment" }, "geometry": { "type": "Point", "coordinates": [ 36.879604, -1.2325 ] } },
{ "type": "Feature", "properties": { "name": "teriyaki, garden city mall", "type": "restaurant;food;point_of_interest;establishment" }, "geometry": { "type": "Point", "coordinates": [ 36.8774004, -1.2322332 ] } },
{ "type": "Feature", "properties": { "name": "autoxpress ltd - garden city", "type": "car_repair;store;point_of_interest;establishment" }, "geometry": { "type": "Point", "coordinates": [ 36.877876, -1.231911 ] } },
{ "type": "Feature", "properties": { "name": "extreme clean - garden city mall", "type": "car_wash;point_of_interest;establishment" }, "geometry": { "type": "Point", "coordinates": [ 36.8779505, -1.2318541 ] } },
{ "type": "Feature", "properties": { "name": "mambo italia garden city", "type": "meal_delivery;store;restaurant;food;point_of_interest;establishment" }, "geometry": { "type": "Point", "coordinates": [ 36.878347, -1.231924 ] } },
{ "type": "Feature", "properties": { "name": "chicken inn garden city", "type": "restaurant;food;point_of_interest;establishment" }, "geometry": { "type": "Point", "coordinates": [ 36.878239, -1.231806 ] } },
{ "type": "Feature", "properties": { "name": "avenue healthcare garden city clinic", "type": "health;point_of_interest;establishment" }, "geometry": { "type": "Point", "coordinates": [ 36.8782791, -1.2321652 ] } },
{ "type": "Feature", "properties": { "name": "chase bank- garden city mall", "type": "bank;finance;point_of_interest;establishment" }, "geometry": { "type": "Point", "coordinates": [ 36.8785101, -1.2321397 ] } },
{ "type": "Feature", "properties": { "name": "big square -garden city mall", "type": "restaurant;food;point_of_interest;establishment" }, "geometry": { "type": "Point", "coordinates": [ 36.878481, -1.2319935 ] } },
{ "type": "Feature", "properties": { "name": "dtb garden city", "type": "bank;finance;point_of_interest;establishment" }, "geometry": { "type": "Point", "coordinates": [ 36.8788712, -1.2321088 ] } },
{ "type": "Feature", "properties": { "name": "tacc store garden city", "type": "furniture_store;home_goods_store;store;point_of_interest;establishment" }, "geometry": { "type": "Point", "coordinates": [ 36.878651, -1.232196 ] } },
{ "type": "Feature", "properties": { "name": "java garden city", "type": "store;food;point_of_interest;establishment" }, "geometry": { "type": "Point", "coordinates": [ 36.8787975, -1.2320327 ] } },
{ "type": "Feature", "properties": { "name": "healthy u garden city", "type": "store;point_of_interest;establishment" }, "geometry": { "type": "Point", "coordinates": [ 36.8790797, -1.2322 ] } },
{ "type": "Feature", "properties": { "name": "garden city mall", "type": "shopping_mall;point_of_interest;establishment" }, "geometry": { "type": "Point", "coordinates": [ 36.8790694, -1.2319674 ] } },
{ "type": "Feature", "properties": { "name": "barclays bank garden city", "type": "bank;finance;point_of_interest;establishment" }, "geometry": { "type": "Point", "coordinates": [ 36.8790339, -1.2318088 ] } },
{ "type": "Feature", "properties": { "name": "java house garden city mall", "type": "restaurant;food;point_of_interest;establishment" }, "geometry": { "type": "Point", "coordinates": [ 36.8794411, -1.231822 ] } },
{ "type": "Feature", "properties": { "name": "urban gourmet burgers garden city,thika road", "type": "restaurant;food;point_of_interest;establishment" }, "geometry": { "type": "Point", "coordinates": [ 36.8794459, -1.2318051 ] } },
{ "type": "Feature", "properties": { "name": "artcaffe garden city", "type": "cafe;food;point_of_interest;establishment" }, "geometry": { "type": "Point", "coordinates": [ 36.878883, -1.23171 ] } },
{ "type": "Feature", "properties": { "name": "goodlife - garden city mall", "type": "pharmacy;store;health;point_of_interest;establishment" }, "geometry": { "type": "Point", "coordinates": [ 36.8785774, -1.2314895 ] } },
{ "type": "Feature", "properties": { "name": "pangani lutheran children's centre, ole kasasi", "type": "point_of_interest;establishment" }, "geometry": { "type": "Point", "coordinates": [ 36.7895244, -1.3931628 ] } },
{ "type": "Feature", "properties": { "name": "roysambu", "type": "neighborhood;political" }, "geometry": { "type": "Point", "coordinates": [ 36.8869064, -1.2184586 ] } },
{ "type": "Feature", "properties": { "name": "roysambu", "type": "bus_station;transit_station;point_of_interest;establishment" }, "geometry": { "type": "Point", "coordinates": [ 36.891129, -1.220318 ] } },
{ "type": "Feature", "properties": { "name": "roysambu", "type": "bus_station;transit_station;point_of_interest;establishment" }, "geometry": { "type": "Point", "coordinates": [ 36.890909, -1.219841 ] } },
{ "type": "Feature", "properties": { "name": "roysambu inn", "type": "bar;point_of_interest;establishment" }, "geometry": { "type": "Point", "coordinates": [ 36.8898477, -1.2193195 ] } },
{ "type": "Feature", "properties": { "name": "roysambu roundabout", "type": "route" }, "geometry": { "type": "Point", "coordinates": [ 36.8917875, -1.2196074 ] } },
{ "type": "Feature", "properties": { "name": "jesus winner ministry roysambu", "type": "church;place_of_worship;point_of_interest;establishment" }, "geometry": { "type": "Point", "coordinates": [ 36.889067, -1.218917 ] } },
{ "type": "Feature", "properties": { "name": "st kizito vocational training institute roysambu branch", "type": "school;point_of_interest;establishment" }, "geometry": { "type": "Point", "coordinates": [ 36.8899372, -1.2189327 ] } },
{ "type": "Feature", "properties": { "name": "roysambu", "type": "bus_station;transit_station;point_of_interest;establishment" }, "geometry": { "type": "Point", "coordinates": [ 36.890574, -1.218631 ] } },
{ "type": "Feature", "properties": { "name": "roysambu chemist", "type": "pharmacy;store;health;point_of_interest;establishment" }, "geometry": { "type": "Point", "coordinates": [ 36.9023922, -1.2185537 ] } },
{ "type": "Feature", "properties": { "name": "roysambu medical services", "type": "health;point_of_interest;establishment" }, "geometry": { "type": "Point", "coordinates": [ 36.8864716, -1.2180898 ] } },
{ "type": "Feature", "properties": { "name": "roysambu stage", "type": "bus_station;transit_station;point_of_interest;establishment" }, "geometry": { "type": "Point", "coordinates": [ 36.8910438, -1.2182373 ] } },
{ "type": "Feature", "properties": { "name": "roysambu", "type": "bus_station;transit_station;point_of_interest;establishment" }, "geometry": { "type": "Point", "coordinates": [ 36.891035, -1.217999 ] } },
{ "type": "Feature", "properties": { "name": "roysambu", "type": "bus_station;transit_station;point_of_interest;establishment" }, "geometry": { "type": "Point", "coordinates": [ 36.891142, -1.218168 ] } },
{ "type": "Feature", "properties": { "name": "lesedi school roysambu", "type": "school;point_of_interest;establishment" }, "geometry": { "type": "Point", "coordinates": [ 36.886072, -1.2177613 ] } },
{ "type": "Feature", "properties": { "name": "club afrique roysambu", "type": "bar;point_of_interest;establishment" }, "geometry": { "type": "Point", "coordinates": [ 36.8910072, -1.2172565 ] } },
{ "type": "Feature", "properties": { "name": "the bar chef mojitos cocktail lounge roysambu", "type": "night_club;bar;point_of_interest;establishment" }, "geometry": { "type": "Point", "coordinates": [ 36.8913881, -1.2170541 ] } },
{ "type": "Feature", "properties": { "name": "roysambu city council stalls - 2", "type": "clothing_store;store;point_of_interest;establishment" }, "geometry": { "type": "Point", "coordinates": [ 36.891386, -1.2169836 ] } },
{ "type": "Feature", "properties": { "name": "roysambu bus station", "type": "bus_station;transit_station;point_of_interest;establishment" }, "geometry": { "type": "Point", "coordinates": [ 36.8936972, -1.2172643 ] } },
{ "type": "Feature", "properties": { "name": "roysambu foot bridge", "type": "route" }, "geometry": { "type": "Point", "coordinates": [ 36.8943603, -1.2169206 ] } },
{ "type": "Feature", "properties": { "name": "roysambu terminus", "type": "bus_station;transit_station;point_of_interest;establishment" }, "geometry": { "type": "Point", "coordinates": [ 36.896534, -1.217073 ] } },
{ "type": "Feature", "properties": { "name": "new hope restoration church roysambu", "type": "church;place_of_worship;point_of_interest;establishment" }, "geometry": { "type": "Point", "coordinates": [ 36.8872845, -1.2167277 ] } },
{ "type": "Feature", "properties": { "name": "grooming lounge roysambu lumumba drive.", "type": "hair_care;health;point_of_interest;establishment" }, "geometry": { "type": "Point", "coordinates": [ 36.8896249, -1.2165147 ] } },
{ "type": "Feature", "properties": { "name": "the bachef mojitos lounge roysambu", "type": "bar;point_of_interest;establishment" }, "geometry": { "type": "Point", "coordinates": [ 36.8914435, -1.2167255 ] } },
{ "type": "Feature", "properties": { "name": "roysambu city council - stall 32", "type": "car_repair;store;point_of_interest;establishment" }, "geometry": { "type": "Point", "coordinates": [ 36.8915145, -1.216756 ] } },
{ "type": "Feature", "properties": { "name": "bhesp roysambu", "type": "hospital;point_of_interest;establishment" }, "geometry": { "type": "Point", "coordinates": [ 36.8911753, -1.2163877 ] } },
{ "type": "Feature", "properties": { "name": "legacy dental centre roysambu", "type": "dentist;health;point_of_interest;establishment" }, "geometry": { "type": "Point", "coordinates": [ 36.8914781, -1.2163416 ] } },
{ "type": "Feature", "properties": { "name": "roysambu - stall 60", "type": "restaurant;food;point_of_interest;establishment" }, "geometry": { "type": "Point", "coordinates": [ 36.8916103, -1.2162036 ] } },
{ "type": "Feature", "properties": { "name": "kenya power roysambu plant", "type": "store;point_of_interest;establishment" }, "geometry": { "type": "Point", "coordinates": [ 36.8942678, -1.2160384 ] } },
{ "type": "Feature", "properties": { "name": "roysambu embroidery", "type": "finance;point_of_interest;establishment" }, "geometry": { "type": "Point", "coordinates": [ 36.8870895, -1.2158184 ] } },
{ "type": "Feature", "properties": { "name": "seventh-day adventist roysambu", "type": "church;place_of_worship;point_of_interest;establishment" }, "geometry": { "type": "Point", "coordinates": [ 36.89016, -1.2146094 ] } },
{ "type": "Feature", "properties": { "name": "roysambu primary school", "type": "school;point_of_interest;establishment" }, "geometry": { "type": "Point", "coordinates": [ 36.8976239, -1.2064918 ] } },
{ "type": "Feature", "properties": { "name": "roysambu academy", "type": "school;point_of_interest;establishment" }, "geometry": { "type": "Point", "coordinates": [ 36.8960068, -1.2046048 ] } },
{ "type": "Feature", "properties": { "name": "roysambu tannery", "type": "point_of_interest;establishment" }, "geometry": { "type": "Point", "coordinates": [ 36.894725, -1.2040789 ] } },
{ "type": "Feature", "properties": { "name": "garden city", "type": "bus_station;transit_station;point_of_interest;establishment" }, "geometry": { "type": "Point", "coordinates": [ 36.8778849, -1.2308979 ] } },
{ "type": "Feature", "properties": { "name": "garden city", "type": "bus_station;transit_station;point_of_interest;establishment" }, "geometry": { "type": "Point", "coordinates": [ 36.8777132, -1.2310696 ] } },
{ "type": "Feature", "properties": { "name": "garden city", "type": "bus_station;transit_station;point_of_interest;establishment" }, "geometry": { "type": "Point", "coordinates": [ 36.8776488, -1.2310696 ] } },
{ "type": "Feature", "properties": { "name": "garden city", "type": "bus_station;transit_station;point_of_interest;establishment" }, "geometry": { "type": "Point", "coordinates": [ 36.8782711, -1.2309837 ] } },
{ "type": "Feature", "properties": { "name": "zulu roasters", "type": "restaurant;food;point_of_interest;establishment" }, "geometry": { "type": "Point", "coordinates": [ 37.2746571, -0.7616598 ] } },
{ "type": "Feature", "properties": { "name": "african coffee roasters", "type": "point_of_interest;establishment" }, "geometry": { "type": "Point", "coordinates": [ 36.9734927, -1.474024 ] } },
{ "type": "Feature", "properties": { "name": "african coffee roasters epz limited", "type": "point_of_interest;establishment" }, "geometry": { "type": "Point", "coordinates": [ 36.9734729, -1.4739203 ] } },
{ "type": "Feature", "properties": { "name": "sikh temple,pangani", "type": "building" }, "geometry": { "type": "Point", "coordinates": [ 36.83353966, -1.2693831 ] } },
{ "type": "Feature", "properties": { "name": "sikh temple,pangani", "type": "building" }, "geometry": { "type": "Point", "coordinates": [ 36.83367853, -1.26910627 ] } },
{ "type": "Feature", "properties": { "name": "pangani auction centre", "type": "commercial" }, "geometry": { "type": "Point", "coordinates": [ 36.8317914, -1.26887916 ] } },
{ "type": "Feature", "properties": { "name": "pangani girls secondary school", "type": "building" }, "geometry": { "type": "Point", "coordinates": [ 36.83740174, -1.26858147 ] } },
{ "type": "Feature", "properties": { "name": "pangani girls secondary school", "type": "building" }, "geometry": { "type": "Point", "coordinates": [ 36.83832765, -1.27109072 ] } },
{ "type": "Feature", "properties": { "name": "pangani girls secondary school", "type": "school" }, "geometry": { "type": "Point", "coordinates": [ 36.83856195, -1.27066421 ] } },
{ "type": "Feature", "properties": { "name": "pangani girls secondary school", "type": "school" }, "geometry": { "type": "Point", "coordinates": [ 36.83818034, -1.27039221 ] } },
{ "type": "Feature", "properties": { "name": "garden city mall", "type": "building" }, "geometry": { "type": "Point", "coordinates": [ 36.87861159, -1.23267508 ] } },
{ "type": "Feature", "properties": { "name": "pangani police - starehe division police station", "type": "building" }, "geometry": { "type": "Point", "coordinates": [ 36.83561685, -1.26956462 ] } },
{ "type": "Feature", "properties": { "name": "pangani yes", "type": "building" }, "geometry": { "type": "Point", "coordinates": [ 36.83768444, -1.26443588 ] } },
{ "type": "Feature", "properties": { "name": "jesus winner ministry roysambu", "type": "building" }, "geometry": { "type": "Point", "coordinates": [ 36.88910382, -1.21893083 ] } },
{ "type": "Feature", "properties": { "name": "pangani police staff houses", "type": "residential" }, "geometry": { "type": "Point", "coordinates": [ 36.83548823, -1.26933807 ] } },
{ "type": "Feature", "properties": { "name": "sikh temple,pangani", "type": "sikh" }, "geometry": { "type": "Point", "coordinates": [ 36.83353966, -1.2693831 ] } },
{ "type": "Feature", "properties": { "name": "sikh temple,pangani", "type": "sikh" }, "geometry": { "type": "Point", "coordinates": [ 36.83367853, -1.26910627 ] } },
{ "type": "Feature", "properties": { "name": "jesus winner ministry roysambu", "type": "christian" }, "geometry": { "type": "Point", "coordinates": [ 36.88910382, -1.21893083 ] } },
{ "type": "Feature", "properties": { "name": "pangani girls secondary school", "type": "school" }, "geometry": { "type": "Point", "coordinates": [ 36.83740174, -1.26858147 ] } },
{ "type": "Feature", "properties": { "name": "pangani girls secondary school", "type": "school" }, "geometry": { "type": "Point", "coordinates": [ 36.83832765, -1.27109072 ] } },
{ "type": "Feature", "properties": { "name": "garden city mall", "type": "mall" }, "geometry": { "type": "Point", "coordinates": [ 36.87861159, -1.23267508 ] } },
{ "type": "Feature", "properties": { "name": "pangani police - starehe division police station", "type": "police" }, "geometry": { "type": "Point", "coordinates": [ 36.83561685, -1.26956462 ] } },
{ "type": "Feature", "properties": { "name": "pangani girls secondary school", "type": "school" }, "geometry": { "type": "Point", "coordinates": [ 36.8382453, -1.2707684 ] } },
{ "type": "Feature", "properties": { "name": "pangani girls secondary school", "type": "school" }, "geometry": { "type": "Point", "coordinates": [ 36.837387, -1.2689406 ] } },
{ "type": "Feature", "properties": { "name": "roasters inn", "type": "restaurant" }, "geometry": { "type": "Point", "coordinates": [ 36.8716551, -1.2343614 ] } },
{ "type": "Feature", "properties": { "name": "barclays bank - pangani branch", "type": "bank" }, "geometry": { "type": "Point", "coordinates": [ 36.8340183, -1.2679585 ] } },
{ "type": "Feature", "properties": { "name": "dhl express yaya center", "type": "vending_any" }, "geometry": { "type": "Point", "coordinates": [ 36.7879433, -1.2927665 ] } },
{ "type": "Feature", "properties": { "name": "teriyaki, garden city mall", "type": "restaurant" }, "geometry": { "type": "Point", "coordinates": [ 36.8779701, -1.2323486 ] } },
{ "type": "Feature", "properties": { "name": "java house garden city mall", "type": "cafe" }, "geometry": { "type": "Point", "coordinates": [ 36.877926, -1.232074 ] } },
{ "type": "Feature", "properties": { "name": "dtb garden city", "type": "bank" }, "geometry": { "type": "Point", "coordinates": [ 36.8790582, -1.2322988 ] } },
{ "type": "Feature", "properties": { "name": "moca loca coffee & lounge - garden city mall", "type": "restaurant" }, "geometry": { "type": "Point", "coordinates": [ 36.8783717, -1.2325403 ] } },
{ "type": "Feature", "properties": { "name": "big square -garden city mall", "type": "restaurant" }, "geometry": { "type": "Point", "coordinates": [ 36.8780867, -1.2320662 ] } },
{ "type": "Feature", "properties": { "name": "chicken inn garden city", "type": "restaurant" }, "geometry": { "type": "Point", "coordinates": [ 36.8787449, -1.232074 ] } },
{ "type": "Feature", "properties": { "name": "artcaffe garden city", "type": "restaurant" }, "geometry": { "type": "Point", "coordinates": [ 36.8788693, -1.2329316 ] } },
{ "type": "Feature", "properties": { "name": "imax garden city", "type": "cinema" }, "geometry": { "type": "Point", "coordinates": [ 36.8784728, -1.2332295 ] } },
{ "type": "Feature", "properties": { "name": "connect coffee roasters", "type": "cafe" }, "geometry": { "type": "Point", "coordinates": [ 36.8071993, -1.2718113 ] } },
{ "type": "Feature", "properties": { "name": "st kizito vocational training institute roysambu branch", "type": "college" }, "geometry": { "type": "Point", "coordinates": [ 36.8899834, -1.2189765 ] } },
{ "type": "Feature", "properties": { "name": "stanbic bank - garden city", "type": "bank" }, "geometry": { "type": "Point", "coordinates": [ 36.8783882, -1.2330105 ] } },
{ "type": "Feature", "properties": { "name": "connect coffe roasters", "type": "bar" }, "geometry": { "type": "Point", "coordinates": [ 36.806694, -1.2720948 ] } },
{ "type": "Feature", "properties": { "name": "kaps parking yaya center", "type": "parking" }, "geometry": { "type": "Point", "coordinates": [ 36.78739136, -1.29317773 ] } },
{ "type": "Feature", "properties": { "name": "sikh temple,pangani", "type": "parking" }, "geometry": { "type": "Point", "coordinates": [ 36.83370581, -1.26865881 ] } },
{ "type": "Feature", "properties": { "name": "garden city mall parking", "type": "parking" }, "geometry": { "type": "Point", "coordinates": [ 36.87898213, -1.23139665 ] } },
{ "type": "Feature", "properties": { "name": "oilibya pangani", "type": "fuel" }, "geometry": { "type": "Point", "coordinates": [ 36.8337664, -1.2681462 ] } },
{ "type": "Feature", "properties": { "name": "roysambu", "type": "bus_stop" }, "geometry": { "type": "Point", "coordinates": [ 36.8925596, -1.2182267 ] } },
{ "type": "Feature", "properties": { "name": "roysambu", "type": "bus_stop" }, "geometry": { "type": "Point", "coordinates": [ 36.892742, -1.2185699 ] } },
{ "type": "Feature", "properties": { "name": "roysambu", "type": "bus_stop" }, "geometry": { "type": "Point", "coordinates": [ 36.8909309, -1.2179853 ] } },
{ "type": "Feature", "properties": { "name": "roysambu-town stage", "type": "bus_stop" }, "geometry": { "type": "Point", "coordinates": [ 36.8914926, -1.2175606 ] } },
{ "type": "Feature", "properties": { "name": "roysambu", "type": "bus_stop" }, "geometry": { "type": "Point", "coordinates": [ 36.8910567, -1.2204266 ] } },
{ "type": "Feature", "properties": { "name": "pangani auction centre", "type": "building" }, "geometry": { "type": "Point", "coordinates": [ 36.83169639, -1.26890193 ] } },
{ "type": "Feature", "properties": { "name": "pangani girls secondary school", "type": "building" }, "geometry": { "type": "Point", "coordinates": [ 36.83856195, -1.27066421 ] } },
{ "type": "Feature", "properties": { "name": "pangani girls secondary school", "type": "building" }, "geometry": { "type": "Point", "coordinates": [ 36.83818034, -1.27039221 ] } },
{ "type": "Feature", "properties": { "name": "pangani lutheran children centre", "type": "building" }, "geometry": { "type": "Point", "coordinates": [ 36.78889599, -1.39347783 ] } },
{ "type": "Feature", "properties": { "name": "garden city mall", "type": "building" }, "geometry": { "type": "Point", "coordinates": [ 36.87861269, -1.23267138 ] } },
{ "type": "Feature", "properties": { "name": "pangani yes", "type": "building" }, "geometry": { "type": "Point", "coordinates": [ 36.83777349, -1.26449407 ] } },
{ "type": "Feature", "properties": { "name": "roysambu", "type": "area" }, "geometry": { "type": "Point", "coordinates": [ 36.88333, -1.2 ] } },
{ "type": "Feature", "properties": { "name": "roysambu hotel", "type": "hotel" }, "geometry": { "type": "Point", "coordinates": [ 36.88333, -1.21667 ] } },
{ "type": "Feature", "properties": { "name": "roysambu", "type": "section of populated place" }, "geometry": { "type": "Point", "coordinates": [ 36.88335, -1.21411 ] } },
{ "type": "Feature", "properties": { "name": "pangani", "type": "section of populated place" }, "geometry": { "type": "Point", "coordinates": [ 36.83333, -1.26667 ] } }
]
}
